{"d":[{"PartitionKey":"12429254-0b32-48bb-8083-56a2c2a617d3","RowKey":"cf03b41f-22bd-45a7-a381-afea588653b4","no":"1","codigo_dane_departamento":"91","departamento":"AMAZONAS","municipio":"LETICIA","codigo_dane_municipio":"001","tipo":"Centro de Convivencia","nombre":"LETICIA","direccion":"Calle 9 No. 9 - 103","barrio":"No Registra","telefono_celular":"Coordijadora: 3144568759","email":"iriand79@hotmail.com","latitud":"-4.2144354","longitud":"-69.9430813"},{"PartitionKey":"e9983a44-016d-429b-b227-7a73648f450a","RowKey":"d3e97f18-59ba-4191-baa8-c7c2440be654","no":"2","codigo_dane_departamento":"05","departamento":"ANTIOQUIA","municipio":"APARTADÓ","codigo_dane_municipio":"045","tipo":"Casa de Justicia","nombre":"APARTADÓ","direccion":"Calle 10B No. 98 - 82","barrio":"Barrio Chinita","telefono_celular":"8282890 - 8282498. 311-6099599","email":"anfemagu@hotmail.com","latitud":"7.880354","longitud":"-76.632144"},{"PartitionKey":"91d5064a-8b42-4bce-8f37-63b59525c09e","RowKey":"fe184959-cc3f-4412-828c-6486adf4690c","no":"3","codigo_dane_departamento":"05","departamento":"ANTIOQUIA","municipio":"BELLO","codigo_dane_municipio":"088","tipo":"Casa de Justicia","nombre":"BELLO","direccion":"Diagonal 65  No. 42A-11","barrio":"Barrio Niquía","telefono_celular":"(4) 4830113. Coordinación (4) 4830380 . 310-8418862","email":"casajusticiabello@hotmail.com","latitud":"6.34635","longitud":"-75.549691"},{"PartitionKey":"7aa18e53-846e-4121-8b5c-d4f4f9f08a5b","RowKey":"749e8554-67a9-4363-915e-a81994a9a4f5","no":"4","codigo_dane_departamento":"05","departamento":"ANTIOQUIA","municipio":"CÁCERES","codigo_dane_municipio":"120","tipo":"Casa de Justicia","nombre":"CÁCERES","direccion":"Carrera 51 No. 46-02","barrio":"Barrio Candilejas","telefono_celular":"(4) 8362016-8362049","email":"ludyscasti@yahoo.es","latitud":"7.579966","longitud":"-75.348198"},{"PartitionKey":"37b94304-e7ba-4e46-90b5-a10dda5551ee","RowKey":"7783e399-d741-4422-811d-f1d32e70ae22","no":"5","codigo_dane_departamento":"05","departamento":"ANTIOQUIA","municipio":"CAUCASIA","codigo_dane_municipio":"154","tipo":"Casa de Justicia","nombre":"CAUCASIA","direccion":"Calle 21 Avenida Pajonal; Frente al Parque la Ceiba","barrio":"No Registra","telefono_celular":"8392014. 311-6884930","email":"williamcuev@gmail.com","latitud":"7.988826","longitud":"-75.196611"},{"PartitionKey":"73be4a4b-81fe-4e6f-9e4b-c59d464457aa","RowKey":"ede209e9-7fcd-4239-b2a4-48713072697a","no":"6","codigo_dane_departamento":"05","departamento":"ANTIOQUIA","municipio":"CHIGORODÓ","codigo_dane_municipio":"172","tipo":"Casa de Justicia","nombre":"CHIGORODÓ","direccion":"Carrera 104A No. 100 - 30. Calle Santander contigua al Palacio Municipal","barrio":"No Registra","telefono_celular":"(4)8255356 - 8253630 Extensión 110. 311-7623470","email":"naydagordon@hotmail.com. garcesnay32@hotmail.com","latitud":"7.672455","longitud":"-76.684485"},{"PartitionKey":"caff52bc-a65f-4ee3-8ab2-56a15ff35d39","RowKey":"4e861707-e275-467d-a633-50c1a604605d","no":"7","codigo_dane_departamento":"05","departamento":"ANTIOQUIA","municipio":"El BAGRE","codigo_dane_municipio":"250","tipo":"Casa de Justicia","nombre":"El BAGRE","direccion":"Calle 49A No. 48-60","barrio":"Barrio Bijao - Diagonal al Palacio Municipal","telefono_celular":"(4) 8370683 Extensión 114 . 314-8935185","email":"glenuri2009@hotmail.com","latitud":"7.590976","longitud":"-74.811292"},{"PartitionKey":"23985f51-e6b1-4eef-ba22-c16f9e5b42bb","RowKey":"00338b89-9280-4c7a-8da1-0e254a31a1f4","no":"8","codigo_dane_departamento":"05","departamento":"ANTIOQUIA","municipio":"ENVIGADO","codigo_dane_municipio":"266","tipo":"Casa de Justicia","nombre":"ENVIGADO","direccion":"Calle 40 Sur N° 24F-106","barrio":"Barrio El Salado","telefono_celular":"3330257 Extensión 4735. 311-3905727","email":"luis.salazar@envigado.gov.co","latitud":"6.153547","longitud":"-75.57889"},{"PartitionKey":"9edc4cca-5018-4574-ae07-9205161386be","RowKey":"d789062c-1beb-4dd1-abf3-83c4a6c11965","no":"9","codigo_dane_departamento":"05","departamento":"ANTIOQUIA","municipio":"ITAGÜÍ","codigo_dane_municipio":"360","tipo":"Casa de Justicia","nombre":"ITAGÜÍ","direccion":"Carrera 52A No. 74-67","barrio":"Barrio Santa María N° 1","telefono_celular":"2813266 - 3167668. 313-6844883","email":"patriciaferr79@hotmail.com","latitud":"6.184795","longitud":"-75.597209"},{"PartitionKey":"3fff7ff0-1478-4c3b-beeb-f5f93994b39d","RowKey":"0b32dbf5-2c71-4536-ad51-8d5c8d220a5c","no":"10","codigo_dane_departamento":"05","departamento":"ANTIOQUIA","municipio":"MEDELLÍN","codigo_dane_municipio":"001","tipo":"Casa de Justicia","nombre":"MEDELLÍN ROBLEDO","direccion":"Diagonal 85 # 79-173","barrio":"Barrio Robledo  El Diamante","telefono_celular":"(4) 4373590  //  91 // 93  . 314-7647885","email":"mariaialzate@medellin.gov.co","latitud":"6.284192","longitud":"-75.584877"},{"PartitionKey":"67bee728-bb15-4250-b3dd-b4a2a334ee15","RowKey":"98322423-450b-4457-b8a2-e68a3567f853","no":"11","codigo_dane_departamento":"05","departamento":"ANTIOQUIA","municipio":"MEDELLÍN","codigo_dane_municipio":"001","tipo":"Casa de Justicia","nombre":"MEDELLÍN VILLA DEL SOCORRO","direccion":"Calle 104B No. 48-60","barrio":"No Registra","telefono_celular":"(4) Coordinación 5215683 - 5216449","email":"adriana.ruiz@medellin.gov.co","latitud":"6.294173","longitud":"-75.5537"},{"PartitionKey":"113bb96c-099b-417f-8db3-e59b48d78bd1","RowKey":"0bca6810-cd75-4686-848f-2a07863d0e34","no":"12","codigo_dane_departamento":"05","departamento":"ANTIOQUIA","municipio":"NECHÍ","codigo_dane_municipio":"495","tipo":"Casa de Justicia","nombre":"NECHÍ","direccion":"Calle La Misericordia Esquina Plaza Principal","barrio":"No Registra","telefono_celular":"8368585. 314-7472618","email":"edmader22@hotmail.com","latitud":"8.096111","longitud":"-74.782308"},{"PartitionKey":"8dae8fc0-f5c3-4dbc-b3d4-a433ce92743c","RowKey":"aad94161-d68a-4f3b-aa40-b4020964abc6","no":"13","codigo_dane_departamento":"05","departamento":"ANTIOQUIA","municipio":"REMEDIOS","codigo_dane_municipio":"604","tipo":"Casa de Justicia","nombre":"REMEDIOS","direccion":"Calle El Retiro Carrera 5  No. 1-48","barrio":"No Registra","telefono_celular":"(4) 8303061 -8304253","email":"casadejusticia@remedios-antioquia.gov.co","latitud":"6.903155","longitud":"-74.570734"},{"PartitionKey":"98a1d340-99ae-472d-832f-84c6191beb34","RowKey":"75daeab8-a97b-40c4-9133-060d604ed573","no":"14","codigo_dane_departamento":"05","departamento":"ANTIOQUIA","municipio":"SEGOVIA","codigo_dane_municipio":"736","tipo":"Casa de Justicia","nombre":"SEGOVIA","direccion":"Carrera 48 No. 48-88 Esquina","barrio":"Calle los Ángeles con Alfonso López","telefono_celular":"(4)8314081- 8315384","email":"concecafra@yahoo.es","latitud":"7.249345","longitud":"-74.751666"},{"PartitionKey":"eafd11ab-cde6-492b-9dcb-253fd76d2751","RowKey":"7bfc2e72-0f57-45b3-b9ac-31b3291dbebb","no":"15","codigo_dane_departamento":"05","departamento":"ANTIOQUIA","municipio":"SONSÓN","codigo_dane_municipio":"756","tipo":"Centro de Convivencia","nombre":"SONSÓN","direccion":"Carrera 8 No. 6-11","barrio":"No Registra","telefono_celular":"Coordinadora: 8692597 - 3116000632","email":"ccc@sonson-antioquia.gov.co","latitud":"5.7055437","longitud":"-75.3139342"},{"PartitionKey":"4b4fd0e2-d26f-483e-a41d-76b212dcbcba","RowKey":"bac12f26-1403-4a40-80ff-6f3078a407c1","no":"16","codigo_dane_departamento":"05","departamento":"ANTIOQUIA","municipio":"TARAZA","codigo_dane_municipio":"790","tipo":"Casa de Justicia","nombre":"TARAZA","direccion":"Calle 30 No. 30-38","barrio":"Barrio La Frontera","telefono_celular":"8365628 - 8365970 Extensión 201. 321-7809208","email":"avibe20@hotmail.com","latitud":"7.580732","longitud":"-75.399584"},{"PartitionKey":"a2c6dc66-5f29-494a-9d07-6078c368dee7","RowKey":"5bb541ac-c955-48fb-abc0-fe268e3813b4","no":"17","codigo_dane_departamento":"05","departamento":"ANTIOQUIA","municipio":"TURBO","codigo_dane_municipio":"837","tipo":"Casa de Justicia","nombre":"TURBO","direccion":"Barrio Ciudad Bolívar al lado del Estadio regional","barrio":"No Registra","telefono_celular":"8273630. 311-3512225","email":"elbersaa@hotmail.com","latitud":"8.093115","longitud":"-76.718348"},{"PartitionKey":"f28496b4-0dee-47ad-bc7d-0fb2e1d19b2e","RowKey":"83f4bf50-a34c-4290-ba4f-2e8e5d930375","no":"18","codigo_dane_departamento":"05","departamento":"ANTIOQUIA","municipio":"VEGACHÍ","codigo_dane_municipio":"858","tipo":"Casa de Justicia","nombre":"VEGACHÍ","direccion":"Calle 53 No. 50-04","barrio":"Barrio El Departamento","telefono_celular":"8305625 - 8305347. 321-7811756","email":"elizpecas@yahoo.com","latitud":"6.773524","longitud":"-74.798335"},{"PartitionKey":"14de951d-3aad-4279-93b8-ad16508d263a","RowKey":"61a708ad-97d9-454d-a9de-f98b43939056","no":"19","codigo_dane_departamento":"05","departamento":"ANTIOQUIA","municipio":"YALÍ","codigo_dane_municipio":"885","tipo":"Casa de Justicia","nombre":"YALÍ","direccion":"Carrera 20 No. 20-54","barrio":"Calle la Argentina","telefono_celular":"8675050 - 8675656 . 312-2872281","email":"No registra","latitud":"6.669211","longitud":"-74.784134"},{"PartitionKey":"df4f87ef-2936-4626-9220-1606fd207405","RowKey":"ac25b754-95ed-4ef3-bf84-f369ebdda797","no":"20","codigo_dane_departamento":"05","departamento":"ANTIOQUIA","municipio":"ZARAGOZA","codigo_dane_municipio":"895","tipo":"Casa de Justicia","nombre":"ZARAGOZA","direccion":"Calle 41  No. 41-08","barrio":"Plaza Principal","telefono_celular":"(4) 8388095. 310-5485623. 320-7655073","email":"casadejusticiazaragoza@gmail.com. protejavier53@hotmail.com","latitud":"7.541529","longitud":"-74.891365"},{"PartitionKey":"fbf532f5-57ab-4a99-85a2-8b756ab893b5","RowKey":"2fdc11cc-d43b-40cd-9bbd-535b2d8ba72e","no":"21","codigo_dane_departamento":"81","departamento":"ARAUCA","municipio":"ARAUQUITA","codigo_dane_municipio":"065","tipo":"Centro de Convivencia","nombre":"ARAUQUITA","direccion":"Calle 4 No. 7-36","barrio":"Barrio San Isidro","telefono_celular":"Coordinador: 3148727045","email":"leo_legaca@hotmail.com","latitud":"7.0291575","longitud":"-71.4311167"},{"PartitionKey":"7d91ae25-c3c7-4d88-a6ac-e4d9d945688d","RowKey":"2d92ec7e-a2a6-4835-ac44-aa8f6078a99c","no":"22","codigo_dane_departamento":"08","departamento":"ATLÁNTICO","municipio":"BARRANQUILLA","codigo_dane_municipio":"001","tipo":"Casa de Justicia","nombre":"BARRANQUILLA LA PAZ","direccion":"Calle 100 No.12F-57","barrio":"Barrio La Paz","telefono_celular":"(5) 3803431","email":"armacastro43@hotmail.com","latitud":"10.964376","longitud":"-74.832957"},{"PartitionKey":"0cdc1b75-8aa2-455b-9761-1532580922f4","RowKey":"577ea357-d960-48c0-85be-62d79c743eca","no":"23","codigo_dane_departamento":"08","departamento":"ATLÁNTICO","municipio":"BARRANQUILLA","codigo_dane_municipio":"001","tipo":"Casa de Justicia","nombre":"BARRANQUILLA SIMÓN BOLÍVAR","direccion":"Carrera 23 No. 5C-10","barrio":"Simón Bolívar","telefono_celular":"312-6832838","email":"rzamora0725@hotmail.com","latitud":"10.961448","longitud":"-74.768417"},{"PartitionKey":"d2428a53-41c1-44a8-baf4-d1f9d54a5133","RowKey":"24f039b6-d612-47ff-8624-6900daff86ff","no":"24","codigo_dane_departamento":"08","departamento":"ATLÁNTICO","municipio":"BARANOA","codigo_dane_municipio":"078","tipo":"Centro de Convivencia","nombre":"BARANOA","direccion":"Carrera 19 No. 11-3-37","barrio":"No Registra","telefono_celular":"Coordinador: 3008379909","email":"jairo1077@hotmail.com","latitud":"10.80171","longitud":"-74.91532"},{"PartitionKey":"2b3b80c1-9d4f-4a4b-866d-6b638e0c8327","RowKey":"e5bc3ac7-d328-4cff-9e4d-d37de9ebf2d7","no":"25","codigo_dane_departamento":"08","departamento":"ATLÁNTICO","municipio":"UISACURÍ","codigo_dane_municipio":"849","tipo":"Centro de Convivencia","nombre":"UISACURÍ","direccion":"Calle 16 N. 18-39","barrio":"No Registra","telefono_celular":"Coordinadora: 3126662114","email":"maribres12@hotmail.com","latitud":"10.74413","longitud":"-74.97957"},{"PartitionKey":"38b95662-905f-4b90-b9bc-f7493e1df48d","RowKey":"0c1fe1c2-aed9-4728-980f-9283ee0dd48e","no":"26","codigo_dane_departamento":"11","departamento":"BOGOTÁ","municipio":"BOGOTÁ","codigo_dane_municipio":"001","tipo":"Casa de Justicia","nombre":"LOS  MÁRTIRES","direccion":"Carrera 21 No. 14 - 75. Carrera 8 No. 10-65","barrio":"No Registra","telefono_celular":"(1) 2471001 - 3813000","email":"huguito1960@yahoo.com","latitud":"4.609949","longitud":"-74.085963"},{"PartitionKey":"08383c7e-12a8-4f6a-a977-5602543040b6","RowKey":"42f5e66f-dbed-4833-bb14-8f47edf6312d","no":"27","codigo_dane_departamento":"11","departamento":"BOGOTÁ","municipio":"BOGOTÁ","codigo_dane_municipio":"001","tipo":"Casa de Justicia","nombre":"CIUDAD BOLÍVAR","direccion":"Transversal 73 No. 70 A - 04 Sur. Carrera 8 No. 10-65","barrio":"Barrio Sierra Morena","telefono_celular":"3813000. 311-5535192","email":"dehumanos@yahoo.es","latitud":"4.579147","longitud":"-74.1669"},{"PartitionKey":"4ba5ea2a-46e6-469f-b740-d9f8ee071faf","RowKey":"650c63e3-4c14-4b4c-aad4-ef6572e4c89d","no":"28","codigo_dane_departamento":"11","departamento":"BOGOTÁ","municipio":"BOGOTÁ","codigo_dane_municipio":"001","tipo":"Casa de Justicia","nombre":"BOSA","direccion":"Carrera 81D No. 59A-59 Sur","barrio":"Barrio Argelia","telefono_celular":"7191115 - 3813000 - 7794727. 300-5608924","email":"ricardenasg@yahoo.es","latitud":"4.61409","longitud":"-74.184232"},{"PartitionKey":"ae352409-ca2a-4de5-8647-7460668aef86","RowKey":"9ffb4280-3e2c-43f7-a70a-7d94750dbd18","no":"29","codigo_dane_departamento":"11","departamento":"BOGOTÁ","municipio":"BOGOTÁ","codigo_dane_municipio":"001","tipo":"Casa de Justicia","nombre":"SUBA","direccion":"Carrera 93 No. 143-50 - Piso 4","barrio":"No Registra","telefono_celular":"6824018 - 6925096 - 3813000. 300-2185586","email":"casadejusticiadesuba@gmail.com. saudademia@gmail.com","latitud":"4.73897","longitud":"-74.086315"},{"PartitionKey":"3ae8db90-0796-4c89-89ca-af3d20561656","RowKey":"123d3d75-95d9-4aef-a8e5-9c4f9d0577de","no":"30","codigo_dane_departamento":"11","departamento":"BOGOTÁ","municipio":"BOGOTÁ","codigo_dane_municipio":"001","tipo":"Casa de Justicia","nombre":"USME","direccion":"Calle 5 No. 4 - 53","barrio":"Centro Usme","telefono_celular":"7660252 -7660266 -3813000. 313-2105098","email":"shahadare@gmail.com. sanpaz634@hotmail.com","latitud":"4.591205","longitud":"-74.075877"},{"PartitionKey":"8459978a-2a59-4bdc-afbb-c72167fd000e","RowKey":"28c96ccc-b5a9-47a8-9529-866655562601","no":"31","codigo_dane_departamento":"13","departamento":"BOLÍVAR","municipio":"CARTAGENA","codigo_dane_municipio":"001","tipo":"Casa de Justicia","nombre":"CARTAGENA CHIQUINQUIRÁ","direccion":"CL 57  No. 31C - 30","barrio":"Carretera Principal de Olaya","telefono_celular":"6613720. 300-8083535","email":"casajusticiachiquinquira@hotmail.com","latitud":"10.399478","longitud":"-75.493977"},{"PartitionKey":"f5a51ebd-8a24-4e95-b23a-e9a6ecf52c21","RowKey":"4fe3e5dc-641b-414d-901c-4f02b2ef169e","no":"32","codigo_dane_departamento":"13","departamento":"BOLÍVAR","municipio":"CARTAGENA","codigo_dane_municipio":"001","tipo":"Casa de Justicia","nombre":"CARTAGENA COUNTRY","direccion":"Manzana 1 Lote 1 frente a la Plaza de la Convivencia","barrio":"Barrio El Country","telefono_celular":"6535030 Extensiones 2530; 2531; 2532    . 300-4916098","email":"mayrac125@yahoo.es","latitud":"10.387316","longitud":"-75.52053"},{"PartitionKey":"a8fc6c73-fec3-4952-bc2d-b4ac1ead2790","RowKey":"4f427c51-d600-49d5-88e9-54f86e595d71","no":"33","codigo_dane_departamento":"13","departamento":"BOLÍVAR","municipio":"CARTAGENA","codigo_dane_municipio":"001","tipo":"Casa de Justicia","nombre":"CARTAGENA CANAPOTE","direccion":"Carrera 17 N° 5- 191. Barrio Torices Sector San Pedro","barrio":"No Registra","telefono_celular":"6560345 - 6677134. 300-2030236","email":"ginafer64@hotmail.com. jsomozas@yahoo.es","latitud":"10.431701","longitud":"-75.535199"},{"PartitionKey":"155c4cb6-e9a5-4f46-b504-e897fce5ce18","RowKey":"33b9e5b4-1cc1-455e-a2a9-654dc5f35db2","no":"34","codigo_dane_departamento":"13","departamento":"BOLÍVAR","municipio":"CANTAGALLO","codigo_dane_municipio":"160","tipo":"Centro de Convivencia","nombre":"CANTAGALLO","direccion":"Calle 1 No 4 - 50","barrio":"Nuevo Galán","telefono_celular":"Coordinadora: 3122190106","email":"jeinnysguerrero@hotmail.com","latitud":"7.34569","longitud":"-73.90276"},{"PartitionKey":"9b154481-2c51-43c8-973a-b7592a6c0a7c","RowKey":"97096abf-20c8-4d78-80ef-b2c3022da512","no":"35","codigo_dane_departamento":"13","departamento":"BOLÍVAR","municipio":"MAGANGUÉ","codigo_dane_municipio":"430","tipo":"Centro de Convivencia","nombre":"MAGANGUÉ","direccion":"Avenida Diego Carvajal Calle 16 No. 30-32","barrio":"No Registra","telefono_celular":"Coordinadora: 3008153475","email":"cvidesa@hotmail.com","latitud":"9.2612157","longitud":"-74.7796063"},{"PartitionKey":"ac871747-6ee2-42a9-819a-611587f1832d","RowKey":"ec55cb88-b462-43dd-ab77-a138da2963d0","no":"36","codigo_dane_departamento":"13","departamento":"BOLÍVAR","municipio":"SAN JACINTO","codigo_dane_municipio":"654","tipo":"Centro de Convivencia","nombre":"SAN JACINTO","direccion":"Calle 14 Carrera 40 Esquina","barrio":"Antiguo mercado","telefono_celular":"Coordinadora: 3205653411","email":"oterome1@hotmail.com","latitud":"9.8316667","longitud":"-75.1263889"},{"PartitionKey":"45689615-1091-4cb3-907b-8a8bdaf5e018","RowKey":"547a2d0a-2f65-42d0-9359-e7a69ed220ed","no":"37","codigo_dane_departamento":"15","departamento":"BOYACÁ","municipio":"TUNJA","codigo_dane_municipio":"001","tipo":"Casa de Justicia","nombre":"TUNJA","direccion":"Transversal 15 N° 20-65","barrio":"Salida Vía a Villa de Leyva","telefono_celular":"7430997 - 7430950. 313-3843688","email":"dicarora0915@hotmail.com","latitud":"5.535767","longitud":"-73.368475"},{"PartitionKey":"d07a0a7a-7fbb-4f42-b8fa-ed0bf6bde151","RowKey":"1899b588-b584-4872-9b47-4e58213f0b55","no":"38","codigo_dane_departamento":"15","departamento":"BOYACÁ","municipio":"SOGAMOSO","codigo_dane_municipio":"759","tipo":"Centro de Convivencia","nombre":"SOGAMOSO","direccion":"Calle 16A No. 9-09","barrio":"No Registra","telefono_celular":"Coordinadora: 3105744919 -7706993","email":"olyas2827408@gmail.com","latitud":"5.7188848","longitud":"-72.924087"},{"PartitionKey":"cd5af995-6cc0-4e67-9b11-606276986583","RowKey":"82528a14-2e13-4300-b41c-15babc305810","no":"39","codigo_dane_departamento":"17","departamento":"CALDAS","municipio":"LA DORADA","codigo_dane_municipio":"380","tipo":"Centro de Convivencia","nombre":"LA DORADA","direccion":"Calle 47 Carrera 4 Esquina","barrio":"Las Ferias","telefono_celular":"Administrativo / Coordinador: 3148335975 - 3217591459","email":"jose.externado044@hotmail.com","latitud":"5.44948","longitud":"-74.66794"},{"PartitionKey":"946aa469-1383-44f3-b487-e145c9076594","RowKey":"91ff2c22-538b-418f-9b43-a866d81982bd","no":"40","codigo_dane_departamento":"17","departamento":"CALDAS","municipio":"MANIZALES","codigo_dane_municipio":"001","tipo":"Casa de Justicia","nombre":"MANIZALES","direccion":"Calle 48D entre Carreras 3E y 4","barrio":"Arriba del Colegio Bosques del Norte","telefono_celular":"(6) 8757473","email":"casadejusticiamanizales@hotmail.com","latitud":"5.099322","longitud":"-75.496165"},{"PartitionKey":"864cc68e-1ea0-4161-bccd-a7d2f0645bd4","RowKey":"3f87c148-e570-4b4c-93bf-faafda623d34","no":"41","codigo_dane_departamento":"17","departamento":"CALDAS","municipio":"RIOSUCIO","codigo_dane_municipio":"614","tipo":"Casa de Justicia","nombre":"RIOSUCIO","direccion":"Calle 6 No. 12B - 55","barrio":"Avenida El Ciprés","telefono_celular":"312-3802620","email":"casadejusticiariosucio@hotmail.com","latitud":"5.416796","longitud":"-75.69961"},{"PartitionKey":"9834e115-9493-497d-83dd-fd0ac72032e9","RowKey":"bda935b1-fb81-4c93-a526-94f9e038a246","no":"42","codigo_dane_departamento":"18","departamento":"CAQUETÁ","municipio":"SAN VICENTE DEL CAGUÁN","codigo_dane_municipio":"753","tipo":"Centro de Convivencia","nombre":"SAN VICENTE DEL CAGUÁN","direccion":"Calle 4 No. 4-65","barrio":"No Registra","telefono_celular":"Coordinadora: 3118489738","email":"wilfabri1975@hotmail.com","latitud":"2.11347","longitud":"-74.76844"},{"PartitionKey":"ce404b00-05c3-4fab-b32b-029c52cf8a03","RowKey":"42a67484-fa1b-41b1-97bd-814967a81155","no":"43","codigo_dane_departamento":"85","departamento":"CASANARE","municipio":"LA SALINA","codigo_dane_municipio":"136","tipo":"Centro de Convivencia","nombre":"LA SALINA","direccion":"Carrera 4 No 2-39","barrio":"No Registra","telefono_celular":"Coordinador / Inspector de Policía: 3203152633","email":"centroconvivencialasalina@gmail.com","latitud":"8.4656469","longitud":"-73.3363284"},{"PartitionKey":"4d1ac731-5cb1-4813-9119-5c14c11c1ec8","RowKey":"8963de43-5c62-4fdc-a28a-bba999d8b141","no":"44","codigo_dane_departamento":"85","departamento":"CASANARE","municipio":"SÁCAMA","codigo_dane_municipio":"315","tipo":"Centro de Convivencia","nombre":"SÁCAMA","direccion":"Calle 3 No. 8 - 35","barrio":"No Registra","telefono_celular":"Coordinador: 3125068170","email":"yesidgutierrez2@hotmail.es","latitud":"6.09846","longitud":"-72.24805"},{"PartitionKey":"71505175-e866-4c88-92a6-c49a2cc456ef","RowKey":"a40b344f-467f-46bd-bf68-aec252ac0214","no":"45","codigo_dane_departamento":"85","departamento":"CASANARE","municipio":"NUNCHÍA","codigo_dane_municipio":"225","tipo":"Centro de Convivencia","nombre":"NUNCHÍA","direccion":"Carrera 5 No. 7-40","barrio":"No Registra","telefono_celular":"Coordinador: 3138589334","email":"programaccc@nunchia-casanare.gov.co","latitud":"5.82874","longitud":"-72.16342"},{"PartitionKey":"e2455051-665a-4a18-9e8e-2a076e1b522d","RowKey":"40b4c738-393a-4d37-bdcb-3eaa57e9006f","no":"46","codigo_dane_departamento":"85","departamento":"CASANARE","municipio":"PAZ DE ARIPORO","codigo_dane_municipio":"250","tipo":"Centro de Convivencia","nombre":"PAZ DE ARIPORO","direccion":"Carrera 10 Con Calle 9 Esquina","barrio":"No Registra","telefono_celular":"Coordinadora: 3115443029","email":"centrodeconvivencia@pazariporo-casanare.gov.co","latitud":"5.881877","longitud":"-71.893372"},{"PartitionKey":"8d510a2f-99c8-4fb1-b854-af74c5b16737","RowKey":"8b6f764a-9943-4955-8b98-db1240293791","no":"47","codigo_dane_departamento":"85","departamento":"CASANARE","municipio":"YOPAL","codigo_dane_municipio":"001","tipo":"Casa de Justicia","nombre":"YOPAL","direccion":"Carrera 33 No. 26A - 12","barrio":"Barrio María Milena Diagonal 15 No. 21","telefono_celular":"(8) 2461794. 313-2087017. 313-4944266","email":"casadejusticiayopal@hotmail.com. lilow2007@hotmail.com","latitud":"5.34043","longitud":"-72.381465"},{"PartitionKey":"26d19dbc-2ee2-468c-9e81-6336ceb8e5f6","RowKey":"6da68c6e-cb75-47eb-99af-afce1d9acd6e","no":"48","codigo_dane_departamento":"19","departamento":"CAUCA","municipio":"BUENOS AIRES","codigo_dane_municipio":"001","tipo":"Casa de Justicia","nombre":"BUENOS AIRES","direccion":"Plazoleta Principal","barrio":"No Registra","telefono_celular":"8466705. 311-3908263","email":"saleacba@hotmail.com","latitud":"3.016145","longitud":"-76.643448"},{"PartitionKey":"b9305599-a26f-4ae3-a367-95f8708f801d","RowKey":"38d88150-9464-4315-9bea-ee427396565b","no":"49","codigo_dane_departamento":"19","departamento":"CAUCA","municipio":"CORINTO","codigo_dane_municipio":"110","tipo":"Casa de Justicia","nombre":"CORINTO","direccion":"Calle 10 No. 6-77","barrio":"Barrio La Elvira","telefono_celular":"8271266. 320-6414781","email":"gloriaramos2009@gmail.com","latitud":"3.173645","longitud":"-76.265471"},{"PartitionKey":"3be9645e-0e3f-4ab1-a8f0-7cfca2265b58","RowKey":"75cd33ae-26b9-4a97-8466-2ffa0e8bdc0f","no":"50","codigo_dane_departamento":"19","departamento":"CAUCA","municipio":"POPAYÁN","codigo_dane_municipio":"212","tipo":"Casa de Justicia","nombre":"POPAYÁN","direccion":"Carrera 6 No. 70 BN00","barrio":"No Registra","telefono_celular":"8249297 / 6770. 310-3929068","email":"casadejusticiapopayan@hotmail.com","latitud":"2.469209","longitud":"-76.578208"},{"PartitionKey":"19bf77df-0666-4fa3-8c8d-d141548b1fed","RowKey":"180f57bd-a5b2-4e14-b0c5-223caf869f72","no":"51","codigo_dane_departamento":"19","departamento":"CAUCA","municipio":"PUERTO TEJADA","codigo_dane_municipio":"573","tipo":"Casa de Justicia","nombre":"PUERTO TEJADA","direccion":"Calle 17 No. 18-67","barrio":"Barrio El Centro","telefono_celular":"8282116. 318-3612080","email":"zulyares@hotmail.com","latitud":"3.23036","longitud":"-76.418426"},{"PartitionKey":"d945b67d-ab3d-4854-882c-919a484129e2","RowKey":"15b14b9a-8460-4111-9d6e-d1e6d1fd28c4","no":"52","codigo_dane_departamento":"19","departamento":"CAUCA","municipio":"SANTANDER DE QUILICHAO","codigo_dane_municipio":"698","tipo":"Casa de Justicia","nombre":"SANTANDER DE QUILICHAO","direccion":"Carrera 10  13AS-140","barrio":"Barrio El Canalón","telefono_celular":"8293215","email":"isabelita963964hotmail.com","latitud":"3.017291","longitud":"-76.482291"},{"PartitionKey":"21437e5d-8d4a-48dc-8a20-228cf9ec3b76","RowKey":"e7cd03ad-7718-4b05-8adb-30e8db5d127c","no":"53","codigo_dane_departamento":"19","departamento":"CAUCA","municipio":"TORIBIO","codigo_dane_municipio":"821","tipo":"Casa de Justicia","nombre":"TORIBIO","direccion":"Barrio El Centro","barrio":"No Registra","telefono_celular":"8498281. 321-6468448","email":"jomicova1@hotmail.com","latitud":"2.954741","longitud":"-76.268552"},{"PartitionKey":"82ac1321-5ff7-479e-881f-dd620dde6fc2","RowKey":"10a714ce-4ccd-4794-9daf-2de6e1b22618","no":"54","codigo_dane_departamento":"20","departamento":"CESAR","municipio":"AGUACHICA","codigo_dane_municipio":"011","tipo":"Centro de Convivencia","nombre":"AGUACHICA","direccion":"Carrera 8 No. 4-18","barrio":"No Registra","telefono_celular":"Coordinadora: 3172553242","email":"centrodeconvivenciaaguachica@hotmail.com","latitud":"8.3060325","longitud":"-73.6265181"},{"PartitionKey":"1c0edc9c-e519-4797-a52d-787b173ef60f","RowKey":"3266fd49-d120-4fc3-998a-d6ed1c78acdd","no":"55","codigo_dane_departamento":"20","departamento":"CESAR","municipio":"VALLEDUPAR","codigo_dane_municipio":"001","tipo":"Casa de Justicia","nombre":"VALLEDUPAR LA NEVADA","direccion":"Calle 7 No. 42 – 83","barrio":"Barrio La Nevada","telefono_celular":"(5) 5845940","email":"casadejusticiavalleduparlanevada@hotmail.com","latitud":"10.474983","longitud":"-73.28221"},{"PartitionKey":"66db7f30-2337-4097-a022-cb52d43c7392","RowKey":"a5e853c6-7c56-4f73-a038-7b01c7ce3f10","no":"56","codigo_dane_departamento":"20","departamento":"CESAR","municipio":"VALLEDUPAR","codigo_dane_municipio":"001","tipo":"Casa de Justicia","nombre":"VALLEDUPAR PRIMERO DE MAYO","direccion":"Calle 29 No 21-84","barrio":"Barrio Primero de Mayo","telefono_celular":"(5)5716002- 5832723","email":"casadejusticiavalleduparprimerodemayo@hotmail.com","latitud":"10.454231","longitud":"-73.252063"},{"PartitionKey":"4da93110-3af4-4b17-a001-beb679237198","RowKey":"dc171f99-7913-4516-883b-c6e64f0604d5","no":"57","codigo_dane_departamento":"27","departamento":"CHOCO","municipio":"CONDOTO","codigo_dane_municipio":"205","tipo":"Casa de Justicia","nombre":"CONDOTO","direccion":"Barrio Carretera al lado del Colegio Técnico Comercial","barrio":"No Registra","telefono_celular":"(4) 6798042. 321-4295164","email":"casadejusticiatado@hotmail.com","latitud":"5.070404","longitud":"-76.642227"},{"PartitionKey":"d8996797-8768-4987-b6c7-99e6d4656a1d","RowKey":"50a49c0b-4792-4592-bb16-55ea3f91a245","no":"58","codigo_dane_departamento":"27","departamento":"CHOCO","municipio":"ISTMINA","codigo_dane_municipio":"361","tipo":"Casa de Justicia","nombre":"ISTMINA","direccion":"Calle 8 No. 32 -30","barrio":"Barrio Cubis Sector Divino Niño","telefono_celular":"(4) 6701857","email":"casajusticiaistmina@hotmail.com","latitud":"5.160574","longitud":"-76.685926"},{"PartitionKey":"c95d1e8b-c573-419d-a5ce-9dbf0b5a81c4","RowKey":"9a868a8d-e8eb-474c-a532-28c85846a022","no":"59","codigo_dane_departamento":"27","departamento":"CHOCO","municipio":"NOVITA","codigo_dane_municipio":"491","tipo":"Casa de Justicia","nombre":"NOVITA","direccion":"Barrio Jesús Pobre frente a la Cancha de Fútbol","barrio":"No Registra","telefono_celular":"310-5333205","email":"casadejusticianovita@hotmail.com","latitud":"4.955359496771934","longitud":"-76.60585284233093"},{"PartitionKey":"a01f864b-937b-4bd3-a7d6-7708aeb108f4","RowKey":"4f8c9dc3-810e-4f07-aff4-176b3826801a","no":"60","codigo_dane_departamento":"27","departamento":"CHOCO","municipio":"QUIBDÓ","codigo_dane_municipio":"001","tipo":"Casa de Justicia","nombre":"QUIBDÓ","direccion":"Carrera 6 No. 37 - 14","barrio":"Barrio Hupango","telefono_celular":"(4) 6714849 . 314-7689174","email":"claudiahurtadogarrido@hotmail.com","latitud":"5.697576","longitud":"-76.656956"},{"PartitionKey":"bacf378d-0b79-4209-8ae7-efc050f8af54","RowKey":"66c48887-b9ad-4f7b-8056-0273a9ef7b5b","no":"61","codigo_dane_departamento":"27","departamento":"CHOCO","municipio":"TADÓ","codigo_dane_municipio":"787","tipo":"Casa de Justicia","nombre":"TADÓ","direccion":"Carrera 9 No. 4-60","barrio":"Barrio Reinaldo Perea","telefono_celular":"6795005. 320-7452369","email":"casadejusticiatado2009@hotmail.com","latitud":"5.266283","longitud":"-76.552005"},{"PartitionKey":"ebe0886c-a6c6-418e-a3e3-7df74caa9c59","RowKey":"eddf6627-e3b4-4203-ae40-6dc6757a6aa6","no":"62","codigo_dane_departamento":"23","departamento":"CÓRDOBA","municipio":"MONTERÍA","codigo_dane_municipio":"001","tipo":"Casa de Justicia","nombre":"MONTERÍA","direccion":"Carrera 14 No. 1 Sur","barrio":"Barrio Los Araujos","telefono_celular":"(4) 7832656 -7922914","email":"casadejusticiamonteria@hotmail.com","latitud":"8.798225","longitud":"-75.940933"},{"PartitionKey":"dd713de8-3a91-4ba4-a8fe-4dea814c72d1","RowKey":"2335eb77-864c-425d-b829-19725f7e49de","no":"63","codigo_dane_departamento":"25","departamento":"CUNDINAMARCA","municipio":"CAJICÁ","codigo_dane_municipio":"126","tipo":"Casa de Justicia","nombre":"CAJICÁ","direccion":"Calle 2A No. 4-07","barrio":"No Registra","telefono_celular":"8795356","email":"alcaldia@cajicacundinamarca.gov.co","latitud":"4.916637","longitud":"-74.025305"},{"PartitionKey":"b69f6ab9-e678-4ccb-93ae-d3361666a50c","RowKey":"30a92973-2cc7-4650-aa55-b99e6ef0c928","no":"64","codigo_dane_departamento":"25","departamento":"CUNDINAMARCA","municipio":"CHÍA","codigo_dane_municipio":"175","tipo":"Casa de Justicia","nombre":"CHÍA","direccion":"Carrera 9 No. 11 - 00. Carrera 11 No. 11 - 29","barrio":"No Registra","telefono_celular":"8632367 - 8844444. 310-4804430","email":"coordinacionjusticia@gmail.com","latitud":"4.860267","longitud":"-74.05914"},{"PartitionKey":"c8648389-21e3-4eae-9a76-1c8ef9758478","RowKey":"10e00de6-86fa-4318-b17a-5fa40746d872","no":"65","codigo_dane_departamento":"25","departamento":"CUNDINAMARCA","municipio":"GIRARDOT","codigo_dane_municipio":"307","tipo":"Casa de Justicia","nombre":"GIRARDOT","direccion":"Carrera 11 con 17 Esquina","barrio":"Barrio Primero de Enero","telefono_celular":"(1) 8308919. 300-2134891","email":"casadejusticiagirardot@hotmail.com. misionproposito@gmail.com","latitud":"4.301294","longitud":"-74.804034"},{"PartitionKey":"32a2e314-cf70-438b-913a-c87c776425db","RowKey":"fa1d266c-f8f5-445d-a1d5-e90ba1fe5d11","no":"66","codigo_dane_departamento":"25","departamento":"CUNDINAMARCA","municipio":"SOACHA","codigo_dane_municipio":"754","tipo":"Casa de Justicia","nombre":"SOACHA","direccion":"Calle 13 No. 7-30","barrio":"No Registra","telefono_celular":"7763375 / 82/ 83. 5770580","email":"casadejusticiasoacha@hotmail.com","latitud":"4.581697","longitud":"-74.219085"},{"PartitionKey":"360281bd-3313-475b-aaa1-a354ba7bedeb","RowKey":"d4a156a2-ccb0-4333-8c71-190e6944b268","no":"67","codigo_dane_departamento":"95","departamento":"GUAVIARE","municipio":"CALAMAR","codigo_dane_municipio":"015","tipo":"Centro de Convivencia","nombre":"CALAMAR","direccion":"Carrera 8 No. 8-02","barrio":"Octavio Vargas","telefono_celular":"Coordinadora: 3177211940","email":"nml47@hotmail.com","latitud":"1.95872","longitud":"-72.65401"},{"PartitionKey":"f2b0f03f-cc1d-49f3-b3f3-6b7c78aa0cba","RowKey":"5e2ecf8e-840e-4e86-b662-da4bdf3a0f64","no":"68","codigo_dane_departamento":"95","departamento":"GUAVIARE","municipio":"SAN JOSÉ DEL GUAVIARE","codigo_dane_municipio":"001","tipo":"Casa de Justicia","nombre":"SAN JOSÉ DEL GUAVIARE","direccion":"Calle 8 No. 23-87","barrio":"No Registra","telefono_celular":"No Registra","email":"casadejusticiasanjosedelguaviare@hotmail.com","latitud":"2.566796","longitud":"-72.633292"},{"PartitionKey":"046378f9-a3ed-4efe-96c4-3a6497c72dc3","RowKey":"6c4c110a-3cfd-43fc-bf03-02736d6108be","no":"69","codigo_dane_departamento":"41","departamento":"HUILA","municipio":"NEIVA","codigo_dane_municipio":"001","tipo":"Casa de Justicia","nombre":"NEIVA","direccion":"Calle 2C No. 28-14. Carrera 5 No. 9-74","barrio":"Nueva granada","telefono_celular":"(8) 8600469 /71 - 8714472. 300-5705564","email":"carorodmer@hotmail.com. rodrigph@hotmail.com","latitud":"2.92572","longitud":"-75.269215"},{"PartitionKey":"27885d25-01b2-4c93-8d70-b4618a0727c6","RowKey":"ea545314-47b3-4adc-bf3b-622cb154f292","no":"70","codigo_dane_departamento":"44","departamento":"LA GUAJIRA","municipio":"BARRANCAS","codigo_dane_municipio":"078","tipo":"Casa de Justicia","nombre":"BARRANCAS","direccion":"Plaza principal","barrio":"No Registra","telefono_celular":"300-6412817","email":"emirobonilla@hotmail.com","latitud":"10.9553947","longitud":"-72.7866803"},{"PartitionKey":"f2cf9cfe-bc82-4cc9-9472-9c8f7b21f6dd","RowKey":"29027bca-b736-459e-94bd-a28ab3267e19","no":"71","codigo_dane_departamento":"44","departamento":"LA GUAJIRA","municipio":"RIOHACHA","codigo_dane_municipio":"001","tipo":"Casa de Justicia","nombre":"RIOHACHA","direccion":"Calle 38 entre Carreras 7 y 8","barrio":"Mercado Nuevo","telefono_celular":"(5) 7287487- 7288629","email":"casadejusticia@riohacha-laguajira.gov.co","latitud":"11.552689","longitud":"-72.909159"},{"PartitionKey":"bae4018b-f249-41e5-a87b-a44d6981d34d","RowKey":"954bb686-fd05-48b7-a020-b7458a9d3ffe","no":"72","codigo_dane_departamento":"44","departamento":"LA GUAJIRA","municipio":"URIBIA","codigo_dane_municipio":"847","tipo":"Casa de Justicia","nombre":"URIBIA","direccion":"Calle 14 No. 10A-43","barrio":"Barrio Venezuela","telefono_celular":"301-2161547","email":"daipadilla@hotmail.com","latitud":"11.726737","longitud":"-72.161037"},{"PartitionKey":"f6bd5b51-17fd-4688-832b-e364172335b0","RowKey":"bc3c48ec-0d4d-45e9-8811-cbf42a7fda0f","no":"73","codigo_dane_departamento":"47","departamento":"MAGDALENA","municipio":"SANTA MARTA","codigo_dane_municipio":"001","tipo":"Casa de Justicia","nombre":"SANTA MARTA","direccion":"Carrera 16 No. 31A – 34","barrio":"Barrio  Las Américas","telefono_celular":"315-7279243. 300-8023392","email":"edmipaca@hotmail.com","latitud":"11.223018","longitud":"-74.200912"},{"PartitionKey":"22450c16-a671-484e-84b7-2968d162341b","RowKey":"04709e4c-ac8a-464a-861b-5547d3c2172b","no":"74","codigo_dane_departamento":"50","departamento":"META","municipio":"VILLAVICENCIO","codigo_dane_municipio":"001","tipo":"Casa de Justicia","nombre":"VILLAVICENCIO","direccion":"Calle 54 Sur No 39-59. Calle 40 No. 33-64","barrio":"Ciudad Porfia","telefono_celular":"6714828 - 6715815 -6704931","email":"casadejusticiavillavicencio@gmail.com. gaboserrano@yahoo.com","latitud":"4.082912","longitud":"-73.665262"},{"PartitionKey":"8f35cf10-a440-4098-b860-5f81bc32e4b1","RowKey":"46726629-98ab-4717-a1db-39cca57b764c","no":"75","codigo_dane_departamento":"52","departamento":"NARIÑO","municipio":"PASTO","codigo_dane_municipio":"001","tipo":"Casa de Justicia","nombre":"PASTO","direccion":"Calle 14 No.30- 25","barrio":"Bomboná","telefono_celular":"(2) 7292204 - 7296356","email":"casadejusticiapasto@hotmail.com","latitud":"1.216795","longitud":"-77.283552"},{"PartitionKey":"fbd19937-d8ae-4e5a-91fe-58d63bf71d73","RowKey":"8fa73dc8-db4c-4400-af59-468c8d37188e","no":"76","codigo_dane_departamento":"52","departamento":"NARIÑO","municipio":"SAN ANDRÉS DE TUMACO","codigo_dane_municipio":"835","tipo":"Casa de Justicia","nombre":"TUMACO","direccion":"Avenida Los Estudiantes La Ye","barrio":"No Registra","telefono_celular":"(2) 7276159- 7271201. 318-4062041","email":"maferprebar@hotmail.com","latitud":"1.814243","longitud":"-78.763822"},{"PartitionKey":"01986f90-b850-4875-b43f-e2ee7de5ccde","RowKey":"84469ebb-6896-41b3-b6e3-c0ddc1fd1cdf","no":"77","codigo_dane_departamento":"54","departamento":"NORTE DE SANTANDER","municipio":"ÁBREGO","codigo_dane_municipio":"003","tipo":"Centro de Convivencia","nombre":"ÁBREGO","direccion":"Avenida Malecón frente al Estadio Hermes Vergel","barrio":"No Registra","telefono_celular":"Coordinador: 5642099 - 3102626938","email":"alvaro88278@hotmail.com","latitud":"8.0865507","longitud":"-73.226645"},{"PartitionKey":"c16112be-35c4-40ae-b641-6933379e1e38","RowKey":"23190231-e0bd-4809-94d3-017b98a1f839","no":"78","codigo_dane_departamento":"54","departamento":"NORTE DE SANTANDER","municipio":"CONVENCIÓN","codigo_dane_municipio":"206","tipo":"Centro de Convivencia","nombre":"CONVENCIÓN","direccion":"Kra 6 No. 5-28","barrio":"Sagod","telefono_celular":"Coordinadora: 3135429052","email":"centroconvivenciaconvencion@hotmail.com","latitud":"8.4656469","longitud":"-73.3363284"},{"PartitionKey":"cdf8c801-1da0-41f1-8a59-815e0fdeafbc","RowKey":"2da39801-ab8b-4eff-8735-b23fd6b46f63","no":"79","codigo_dane_departamento":"54","departamento":"NORTE DE SANTANDER","municipio":"CÚCUTA","codigo_dane_municipio":"001","tipo":"Casa de Justicia","nombre":"CÚCUTA","direccion":"Calle 18 No. 11 - 61","barrio":"Barrio La Libertad","telefono_celular":"(7) 5761790","email":"ajurohe@hotmail.com","latitud":"7.878043","longitud":"-72.509012"},{"PartitionKey":"873208e3-5afb-4b75-96ef-70ac0a41bd06","RowKey":"4cca9506-ab3b-4746-9b21-cc99305ad809","no":"80","codigo_dane_departamento":"54","departamento":"NORTE DE SANTANDER","municipio":"CÚCUTA","codigo_dane_municipio":"001","tipo":"Centro de Convivencia","nombre":"JUAN ATALAYA - CÚCUTA","direccion":"Avenida 0 entre Calles 1 y 2","barrio":"Barrio Comuneros","telefono_celular":"Coordinador: 3165100681","email":"carlosvega_11@hotmail.com","latitud":"7.9086119","longitud":"-72.5284767"},{"PartitionKey":"f181a0fc-bee3-4d9d-855e-1885da1fb935","RowKey":"956c4427-0069-41d0-b695-4109af5431e7","no":"81","codigo_dane_departamento":"54","departamento":"NORTE DE SANTANDER","municipio":"OCAÑA","codigo_dane_municipio":"498","tipo":"Centro de Convivencia","nombre":"OCAÑA","direccion":"Calle 7 No. 29 - 159","barrio":"Villa Karina","telefono_celular":"Coordinador:3183622182","email":"djaruro12@hotmail.com","latitud":"8.21466","longitud":"-73.23822"},{"PartitionKey":"769bf0a6-2cf7-4ed9-a10d-4b78ef5e04e0","RowKey":"62a46cfd-1866-491b-985f-6d51d2b1f36e","no":"82","codigo_dane_departamento":"54","departamento":"NORTE DE SANTANDER","municipio":"TIBÚ","codigo_dane_municipio":"810","tipo":"Centro de Convivencia","nombre":"TIBÚ","direccion":"Carrera 2 No. 2 - 28","barrio":"Barrio Las Delicias","telefono_celular":"Coordinador: 3112902058","email":"oscarpabon_12@hotmail.com","latitud":"8.6377","longitud":"-72.73172"},{"PartitionKey":"8325ffad-5026-4525-a1a5-b555628edd33","RowKey":"580a0e65-caea-4dd2-ab51-2e65ecdd55f2","no":"83","codigo_dane_departamento":"54","departamento":"NORTE DE SANTANDER","municipio":"VILLA DEL ROSARIO","codigo_dane_municipio":"874.","tipo":"Centro de Convivencia","nombre":"VILLA DEL ROSARIO","direccion":"Carrera 6 No. 6-635","barrio":"Centro","telefono_celular":"Coordinadora: 3187171785","email":"ccc@villarosario.gov.co","latitud":"7.819167","longitud":"-72.4717716"},{"PartitionKey":"209fcbe7-981f-442c-ad0c-9572a3168a47","RowKey":"58b5a61d-5eab-419c-ac5a-9524f60cc91f","no":"84","codigo_dane_departamento":"86","departamento":"PUTUMAYO","municipio":"MOCOA","codigo_dane_municipio":"001","tipo":"Casa de Justicia","nombre":"MOCOA","direccion":"Carrera 9 No. 7 - 16","barrio":"Barrio Centro","telefono_celular":"(8) 4295390. 310-3433508","email":"casadejusticiamocoa1@hotmail.com","latitud":"1.146621","longitud":"-76.648699"},{"PartitionKey":"49ac98b4-d28d-45ec-bd3d-b702d87b0e16","RowKey":"21b2b7b8-fde5-4b6d-93b3-da08c64877ea","no":"85","codigo_dane_departamento":"86","departamento":"PUTUMAYO","municipio":"PUERTO ASÍS","codigo_dane_municipio":"568","tipo":"Casa de Justicia","nombre":"PUERTO ASÍS","direccion":"Carrera 19 con Calle 14 Esquina","barrio":"Barrio Las Américas","telefono_celular":"(8) 4227525. 321-4364814","email":"casadejusticiapuertoasis@hotmail.com","latitud":"0.499284","longitud":"-76.503058"},{"PartitionKey":"d83fcd1b-3135-4718-8dfe-14ed7218d3f8","RowKey":"db9ad381-0ee6-4f06-ab25-45e932b3f34c","no":"86","codigo_dane_departamento":"63","departamento":"QUINDÍO","municipio":"ARMENIA","codigo_dane_municipio":"001","tipo":"Casa de Justicia","nombre":"ARMENIA","direccion":"Manzana 9 Casa 11","barrio":"Barrio Cañas Gordas","telefono_celular":"7470337","email":"casadejusticiaarmenia@hotmail.com","latitud":"4.520993","longitud":"-75.679923"},{"PartitionKey":"fa7ef347-a58f-4500-b203-aa4bda072224","RowKey":"cc27e7c7-1ab9-4f39-b3c0-5a2eeb27260b","no":"87","codigo_dane_departamento":"66","departamento":"RISARALDA","municipio":"PEREIRA","codigo_dane_municipio":"001","tipo":"Casa de Justicia","nombre":"PEREIRA CUBA","direccion":"Carrera 24 No. 70B-10","barrio":"Barrio San Fernando Cuba","telefono_celular":"3275753. 318-3900795","email":"casadejusticiapereiracuba@hotmail.com","latitud":"4.806113","longitud":"-75.738889"},{"PartitionKey":"92acbfcc-ab4f-4797-96d0-59c68d665798","RowKey":"5573a92a-c10c-47ed-9dd1-2b2dda10bd72","no":"88","codigo_dane_departamento":"66","departamento":"RISARALDA","municipio":"DOSQUEBRADAS","codigo_dane_municipio":"170","tipo":"Casa de Justicia","nombre":"DOSQUEBRADAS","direccion":"Carrera 21 No. 66-21 Plan 3 Zona 6","barrio":"Camilo Torres","telefono_celular":"3289101","email":"casadejusticiadosquebradas@hotmail.com","latitud":"4.8434","longitud":"-75.657773"},{"PartitionKey":"0f710a8f-8b0a-4177-bcee-f0ce4ed81e8c","RowKey":"b3390393-1832-451b-a316-484f35aba074","no":"89","codigo_dane_departamento":"66","departamento":"RISARALDA","municipio":"PEREIRA","codigo_dane_municipio":"001","tipo":"Casa de Justicia","nombre":"PEREIRA VILLA SANTANA","direccion":"Manzana 52 Casa 8","barrio":"Barrio Villa Santana junto a la Estación de Policía San Vicente","telefono_celular":"(6) 3162945. 310-3982712","email":"casadejusticiapereiravillasantana@hotmail.com","latitud":"4.798068","longitud":"-75.668081"},{"PartitionKey":"a120c06a-6d0b-4766-8977-2c9eb1891cee","RowKey":"388af9e2-492b-4421-b362-1a456b302119","no":"90","codigo_dane_departamento":"88","departamento":"SAN ANDRÉS Y PROVIDENCIA","municipio":"SAN ANDRÉS","codigo_dane_municipio":"001","tipo":"Casa de Justicia","nombre":"SAN ANDRÉS","direccion":"Avenida Las Américas  Swand Ground","barrio":"No Registra","telefono_celular":"(5) 5130801 Extensión 180. 315-3034521","email":"nazlyritchie@hotmail.com. nrithie@sanandres.gov.co","latitud":"12.583756","longitud":"-81.697542"},{"PartitionKey":"7dc97a1d-7fc1-4c66-9a63-87e225697b4c","RowKey":"58daf478-82eb-458b-bc06-dea01991afca","no":"91","codigo_dane_departamento":"68","departamento":"SANTANDER","municipio":"BARRANCABERMEJA","codigo_dane_municipio":"081","tipo":"Centro de Convivencia","nombre":"BARRANCABERMEJA","direccion":"Calle 54 Carrera 36E Esquina","barrio":"Barrio primera de mayo","telefono_celular":"Coordinadora: 3114815598","email":"malgarethsanchez@hotmail.com","latitud":"7.0666667","longitud":"-73.85"},{"PartitionKey":"0aae73c4-cdbb-4a4c-ab8b-750681d8df04","RowKey":"8bc4b4b2-abfc-41eb-a8d0-28804953afb4","no":"92","codigo_dane_departamento":"68","departamento":"SANTANDER","municipio":"BUCARAMANGA","codigo_dane_municipio":"001","tipo":"Casa de Justicia","nombre":"BUCARAMANGA","direccion":"Calle 7 No.19-19","barrio":"Barrio La Juventud","telefono_celular":"(7) 6401542 - 6406178","email":"sg.coordinacioncj@gmail.com","latitud":"7.139006","longitud":"-73.128222"},{"PartitionKey":"6b1d0109-9fb1-44d0-86e9-7bc903571e87","RowKey":"a2220595-16d4-4b20-b44b-f7f9e49b10c6","no":"93","codigo_dane_departamento":"68","departamento":"SANTANDER","municipio":"FLORIDABLANCA","codigo_dane_municipio":"276","tipo":"Casa de Justicia","nombre":"FLORIDABLANCA","direccion":"Avenida 60 No. 42-63","barrio":"Barrio El Carmen Etapa 4","telefono_celular":"317-7692591","email":"casadejusticiafloridablanca2011@hotmail.com","latitud":"7.065523","longitud":"-73.102632"},{"PartitionKey":"9c12d17b-ef03-499e-9c3a-524c0e8b0d3c","RowKey":"7717ceb3-6cb6-48d4-a85f-ef86cbc62b64","no":"94","codigo_dane_departamento":"68","departamento":"SANTANDER","municipio":"PUERTO WILCHES","codigo_dane_municipio":"575","tipo":"Centro de Convivencia","nombre":"PUERTO WILCHES","direccion":"Calle 6 No. 1-64","barrio":"No Registra","telefono_celular":"Coordinadora: 3202345575","email":"lucymalagon1@hotmail.com","latitud":"7.34797","longitud":"-73.89769"},{"PartitionKey":"66a21fdd-a928-4ff1-927f-fb4062123eca","RowKey":"60324960-fe21-46f0-8123-9eeb36f8097c","no":"95","codigo_dane_departamento":"68","departamento":"SANTANDER","municipio":"SABANA DE TORRES","codigo_dane_municipio":"655","tipo":"Centro de Convivencia","nombre":"SABANA DE TORRES","direccion":"Carrera 11 No. 11-08","barrio":"No Registra","telefono_celular":"Coordinador: 6293362 - 3166218846","email":"enlacesabat@gmail.com","latitud":"7.39206","longitud":"-73.49173"},{"PartitionKey":"11ee16ff-e68a-4c1a-b6d7-7d63f4af2e4f","RowKey":"1480f264-3f33-4507-a7c7-468b670c5092","no":"96","codigo_dane_departamento":"68","departamento":"SANTANDER","municipio":"SAN GIL","codigo_dane_municipio":"679","tipo":"Centro de Convivencia","nombre":"SAN GIL","direccion":"Calle 22 No. 9-32","barrio":"No Registra","telefono_celular":"Directora: 7236129 - 3165228752","email":"convivencia@sangil.gov.co","latitud":"6.5557643","longitud":"-73.1440081"},{"PartitionKey":"26b84b54-ad4a-4737-9ee4-28a2951ecb49","RowKey":"2f241e21-1dd1-4d5b-bf33-8ef4daf9ad3f","no":"97","codigo_dane_departamento":"70","departamento":"SUCRE","municipio":"SAN ONOFRE","codigo_dane_municipio":"713","tipo":"Casa de Justicia","nombre":"SAN ONOFRE","direccion":"Calle 19 No. 21 -104","barrio":"Barrio Caño 1","telefono_celular":"(5) 2982349. 310-3638161","email":"josefinajulio2010@hotmail.com","latitud":"3.59082","longitud":"-75.383207"},{"PartitionKey":"34da916d-287e-4ee3-9fbd-4da5f488da21","RowKey":"54171443-5e3a-491c-afd2-663a1e38d5ca","no":"98","codigo_dane_departamento":"70","departamento":"SUCRE","municipio":"SAN LUIS DE SINCE","codigo_dane_municipio":"742","tipo":"Centro de Convivencia","nombre":"SINCÉ","direccion":"Calle 14 Carrera 10 Detrás del Instituto Educativo San Juan Bautista de la Calle","barrio":"No Registra","telefono_celular":"Coordinadora: 3205938555","email":"cccsincesucre@hotmail.com","latitud":"9.24012","longitud":"-75.14627"},{"PartitionKey":"d39b5edc-224b-4e34-9dfd-9ebada0419ff","RowKey":"e8f46780-bf7e-4b31-bc7c-3772d9d7bbc7","no":"99","codigo_dane_departamento":"73","departamento":"TOLIMA","municipio":"ATACO","codigo_dane_municipio":"067.","tipo":"Casa de Justicia","nombre":"ATACO","direccion":"Calle 8 No. 4-07","barrio":"No Registra","telefono_celular":"2240042","email":"diegocubillos24@hotmail.com. alcaldia@ataco-tolima.gov.co","latitud":"3.59082","longitud":"-75.383207"},{"PartitionKey":"d76cb40c-716d-4afd-bf61-38df91169545","RowKey":"429fd884-dd53-4972-a110-1c9f68f33d64","no":"100","codigo_dane_departamento":"73","departamento":"TOLIMA","municipio":"CHAPARRAL","codigo_dane_municipio":"168.","tipo":"Casa de Justicia","nombre":"CHAPARRAL","direccion":"Diagonal 8 No. 2-48 Esquina","barrio":"Barrio el Rocio","telefono_celular":"2461797","email":"alcaldia@chaparral-tolima.gov.co","latitud":"3.750015","longitud":"-75.583336"},{"PartitionKey":"8eb2d0e3-98e2-4e63-9cbb-ae548980b47e","RowKey":"fd77e962-24b7-4547-8e15-26e895f9415d","no":"101","codigo_dane_departamento":"73","departamento":"TOLIMA","municipio":"EL ESPINAL","codigo_dane_municipio":"268.","tipo":"Centro de Convivencia","nombre":"EL ESPINAL","direccion":"MANZANA E Y S","barrio":"Villa Paz II","telefono_celular":"Coordinadora: 3132322370","email":"coordinacioncc@elespinal-tolima.gov.co","latitud":"4.2173575","longitud":"-74.9824236"},{"PartitionKey":"343ed505-e560-4e30-868e-847bed72f1a3","RowKey":"a6e9d0f2-f6cc-40f8-aada-047fb21655b0","no":"102","codigo_dane_departamento":"73","departamento":"TOLIMA","municipio":"IBAGUÉ","codigo_dane_municipio":"001","tipo":"Casa de Justicia","nombre":"IBAGUÉ","direccion":"Calle 9 No. 2-59","barrio":"Ciudadela Simón Bolívar","telefono_celular":"2710116 - 6611854 /55. 310-2910120","email":"atmages@yahoo.es","latitud":"4.444687","longitud":"-75.243646"},{"PartitionKey":"f4f46693-93b8-4a80-b329-3713079074ec","RowKey":"728a74c1-68f9-443a-83aa-9949df7d1bd5","no":"103","codigo_dane_departamento":"73","departamento":"TOLIMA","municipio":"ORTEGA","codigo_dane_municipio":"504","tipo":"Casa de Justicia","nombre":"ORTEGA","direccion":"Calle 6 No. 5-30","barrio":"No Registra","telefono_celular":"2256032","email":"despachoalcalde@ortega-tolima.gov.co","latitud":"3.934518","longitud":"-75.21855"},{"PartitionKey":"a928fa7d-2e71-444e-b7e2-f6988d9c3b90","RowKey":"d311c918-256a-463f-b7a9-76c101f97a9b","no":"104","codigo_dane_departamento":"73","departamento":"TOLIMA","municipio":"RIOBLANCO","codigo_dane_municipio":"616","tipo":"Casa de Justicia","nombre":"RIOBLANCO","direccion":"Carrera 5 No. 4-25","barrio":"No Registra","telefono_celular":"2256032 / 82","email":"alcaldia@rioblanco-tolima.gov.co","latitud":"3.530678","longitud":"-75.645547"},{"PartitionKey":"aa98b342-3a69-4bf2-af82-9de00287eb4b","RowKey":"4e189699-5ae1-47f6-b09b-61206223b18e","no":"105","codigo_dane_departamento":"76","departamento":"VALLE DEL CAUCA","municipio":"BUENAVENTURA","codigo_dane_municipio":"109","tipo":"Casa de Justicia","nombre":"BUENAVENTURA","direccion":"Calle 4A Sur Carrera 73B Esquina","barrio":"Barrio Nueva Granada","telefono_celular":"(2) 2446441. 310-8312074. 316-7401537","email":"casadejusticiabuenaventura@hotmail.com","latitud":"3.863484","longitud":"-76.994496"},{"PartitionKey":"7198df5d-fc25-4ab6-9208-fc53ade05f6a","RowKey":"7b38997b-eb35-46a7-a19b-4d01c1630f3c","no":"106","codigo_dane_departamento":"76","departamento":"VALLE DEL CAUCA","municipio":"BUGA","codigo_dane_municipio":"111","tipo":"Casa de Justicia","nombre":"BUGA","direccion":"Calle 30 No. 13A - 01","barrio":"No Registra","telefono_celular":"(2) 2386780. 316-3299315","email":"casadejusticiabuga@hotmail.com","latitud":"3.917981","longitud":"-76.294194"},{"PartitionKey":"21dd35c8-15be-4c49-90a7-bb3111afd906","RowKey":"eb3da622-5ae9-46e2-99e8-96ab69a23b82","no":"107","codigo_dane_departamento":"76","departamento":"VALLE DEL CAUCA","municipio":"CALI","codigo_dane_municipio":"001.","tipo":"Casa de Justicia","nombre":"CALI AGUABLANCA","direccion":"Calle 73 No. 26 R 00","barrio":"Barrio Marroquín II Casa de Justicia","telefono_celular":"317-5159728","email":"casadejusticiacaliaguablanca@hotmail.com","latitud":"3.425871","longitud":"-76.484762"},{"PartitionKey":"4a89bfcc-79c6-47a0-93a6-54fad70f13fc","RowKey":"6a27b933-b63e-474e-b503-5c25066240ca","no":"108","codigo_dane_departamento":"76","departamento":"VALLE DEL CAUCA","municipio":"CALI","codigo_dane_municipio":"001.","tipo":"Casa de Justicia","nombre":"CALI SILOÉ","direccion":"Carrera 52 No. 2 - 00","barrio":"No Registra","telefono_celular":"(2) 5521827. 310-8200632","email":"casadejusticiacalisiloe@hotmail.com","latitud":"3.416449","longitud":"-76.556094"},{"PartitionKey":"accb38a2-6885-4525-a6c5-47d22904f6bf","RowKey":"004cfcd0-4779-4d53-bf45-e6095cda8a8d","no":"109","codigo_dane_departamento":"76","departamento":"VALLE DEL CAUCA","municipio":"CARTAGO","codigo_dane_municipio":"147","tipo":"Casa de Justicia","nombre":"CARTAGO","direccion":"Carrera 1 con Calle 37","barrio":"Barrio San Carlos","telefono_celular":"(2) 2101414 . 300-7739634","email":"casajusticia@cartago.gov.co","latitud":"4.763032","longitud":"-75.933837"},{"PartitionKey":"0100e065-ff60-4ee6-a275-9b1413c489d8","RowKey":"4b2c07c6-b59d-4123-af34-448f661769c3","no":"110","codigo_dane_departamento":"76","departamento":"VALLE DEL CAUCA","municipio":"PALMIRA","codigo_dane_municipio":"520","tipo":"Casa de Justicia","nombre":"PALMIRA","direccion":"Calle 57 No. 44-22","barrio":"Barrio Caimitos","telefono_celular":"312-8279903. 312-2138595","email":"casadejusticiapalmira@hotmail.com","latitud":"3.548162","longitud":"-76.313696"},{"PartitionKey":"661ad98f-b44e-4882-b894-a2d4b8b3c68e","RowKey":"8bed115e-0d77-42ed-882e-98cf5baa793f","no":"111","codigo_dane_departamento":"76","departamento":"VALLE DEL CAUCA","municipio":"TULUÁ","codigo_dane_municipio":"834","tipo":"Casa de Justicia","nombre":"TULUÁ","direccion":"Carrera 10 No. 25-50","barrio":"Barrio Marandúa","telefono_celular":"(2) 2318440","email":"casadejusticiatulua@hotmail.com","latitud":"4.092458","longitud":"-76.207084"}]}